Name,City,State,Address,Latitude,Longitude,Rating,Price,Image
Country Inn & Suites By Turtle,Mumbai,Maharashtra,Country Inn & Suites By Turtle Mumbai Maharashtra ,19.1284528,72.8368595,6.2,"3,780",https://cf.bstatic.com/xdata/images/hotel/square600/423638200.webp?k=deac3a96425945c71f1e11d98b5101fcab04b7bbc64e294c1145da78ae435e91&o=&s=1
Empire Hotel - Grant Road,Mumbai,Maharashtra,Empire Hotel - Grant Road Mumbai Maharashtra ,18.9613183,72.8175979,8.1,"2,340",https://cf.bstatic.com/xdata/images/hotel/square600/43212916.webp?k=1ba490b83e7da0c9107c9490d0c8902c0aa4276f7136c780822bcd399280ee7b&o=&s=1
FabHotel Aksa International Andheri East,Mumbai,Maharashtra,FabHotel Aksa International Andheri East Mumbai Maharashtra ,19.1121921,72.8881836,7.1,"2,064",https://cf.bstatic.com/xdata/images/hotel/square600/294067892.webp?k=e2892a54f4f00f4f551e76609436ee786f0d8f7b8b9f4519c242a57385f73870&o=&s=1
Hotel Marine Plaza,Mumbai,Maharashtra,Hotel Marine Plaza Mumbai Maharashtra ,18.9313217,72.8230725,7.4,"9,900",https://cf.bstatic.com/xdata/images/hotel/square600/330897136.webp?k=02b31a2cc3d7e2ed83f9d981883ab2c16d40bd66e0bfa6f75e93923363488436&o=&s=1
FabHotel Prime Le Western,Mumbai,Maharashtra,FabHotel Prime Le Western Mumbai Maharashtra ,19.1078919,72.882743,6.4,"4,118",https://cf.bstatic.com/xdata/images/hotel/square600/424548128.webp?k=101debe999608ecc8c76a1c01c2594ea72a54be60456692b9fdcdd45496a920c&o=&s=1
"The Royal Orchid Hotel, Chembur",Mumbai,Maharashtra,"The Royal Orchid Hotel, Chembur Mumbai Maharashtra ",19.0618862,72.9016119,7.7,"2,430",https://cf.bstatic.com/xdata/images/hotel/square600/130009356.webp?k=82bc3c0f3f8f13c27e9108781ec25aca41df40999c76bf70e1c25c67c4b68246&o=&s=1
FabExpress Orange Suites Santacruz East,Mumbai,Maharashtra,FabExpress Orange Suites Santacruz East Mumbai Maharashtra ,19.0800856,72.8487036,7.7,"2,312",https://cf.bstatic.com/xdata/images/hotel/square600/178955979.webp?k=d5607dfc738fabbb55ab44ab2dfdb892e9465b8ed937db99f774e00cf27bb80d&o=&s=1
"Ascot Hotel, Colaba",Mumbai,Maharashtra,"Ascot Hotel, Colaba Mumbai Maharashtra ",18.9190972,72.8299644,8.1,"6,300",https://cf.bstatic.com/xdata/images/hotel/square600/78808133.webp?k=0feace168ee9dce0296b67ba0c9ed32f61ddbf5f8a1f119a7ef6cf8e38c3528a&o=&s=1
Le Sutra Hotel,Mumbai,Maharashtra,Le Sutra Hotel Mumbai Maharashtra ,19.0718145,72.8254336,8.3,"9,323",https://cf.bstatic.com/xdata/images/hotel/square600/249672515.webp?k=5f3a7b534346d10b355fab73946a0bfd3c021807abf1f48aeeee4755490cdcfd&o=&s=1
FabExpress Spring Inn Kandivali,Mumbai,Maharashtra,FabExpress Spring Inn Kandivali Mumbai Maharashtra ,19.20195,72.850895,7.2,"2,421",https://cf.bstatic.com/xdata/images/hotel/square600/338383958.webp?k=b2f1cdf1f1c8b7c815e34642a8e19228144813a296bf9f5c0e1b160d66085b17&o=&s=1
Residency Hotel Andheri,Mumbai,Maharashtra,Residency Hotel Andheri Mumbai Maharashtra ,19.1043193,72.8593051,7.3,"5,000",https://cf.bstatic.com/xdata/images/hotel/square600/33903873.webp?k=303ec443286f01cf05808d9e0446c43d1bc2ae12c7d60837c6a307a83f637980&o=&s=1
Sea Green Hotel,Mumbai,Maharashtra,Sea Green Hotel Mumbai Maharashtra ,18.9328595,72.8236717,7,"6,348",https://cf.bstatic.com/xdata/images/hotel/square600/62666833.webp?k=2c6f4bc975dc87d98e3dda08fc098aa7e654129a9645a26baa9cd185f9241261&o=&s=1
FabExpress Liwa International Andheri East,Mumbai,Maharashtra,FabExpress Liwa International Andheri East Mumbai Maharashtra ,19.1261765,72.8600933,7.6,"2,907",https://cf.bstatic.com/xdata/images/hotel/square600/215732021.webp?k=5ed4569de9eb0020818404cdd194d1a2ebdf79ab565618d7995d700ea0930e9f&o=&s=1
Sea Green South Hotel,Mumbai,Maharashtra,Sea Green South Hotel Mumbai Maharashtra ,19.1034557,72.8309294,7.1,"6,000",https://cf.bstatic.com/xdata/images/hotel/square600/64257851.webp?k=32a8cb264a482f8bd4faf59504299b91ec2278170f91ff68f124a7271e7b754c&o=&s=1
FabHotel RK International,Mumbai,Maharashtra,FabHotel RK International Mumbai Maharashtra ,19.085494,72.884266,7.4,"2,943",https://cf.bstatic.com/xdata/images/hotel/square600/289854981.webp?k=d4f4a9169333a2f9c8b1c53d979c010f88a34ec25798d913a995905b9a5e7009&o=&s=1
Niranta Transit Hotel Terminal 2 Arrivals/Landside,Mumbai,Maharashtra,Niranta Transit Hotel Terminal 2 Arrivals/Landside Mumbai Maharashtra ,19.0974373,72.8745017,7.6,"9,054",https://cf.bstatic.com/xdata/images/hotel/square600/336693267.webp?k=90883936df52125d7aef7504aa688f9e249223de17809bc9439eb39444d30631&o=&s=1
"Adiva Residency Beacon, Grant Road, Mumbai",Mumbai,Maharashtra,"Adiva Residency Beacon, Grant Road, Mumbai Mumbai Maharashtra ",18.961646,72.8212551,7.7,"4,977",https://cf.bstatic.com/xdata/images/hotel/square600/409734404.webp?k=d3ca46e9fe9a0129519e86aa3b2651d92c990246f98485dcf269edbef0d1a1e2&o=&s=1
"Regent Hotel Andheri, Airport",Mumbai,Maharashtra,"Regent Hotel Andheri, Airport Mumbai Maharashtra ",19.1139624,72.8714407,7.4,"4,649",https://cf.bstatic.com/xdata/images/hotel/square600/173068602.webp?k=e64d645f4f69acdaf88330eaf908b4a19a679f40af77934299da2515c2b6e96d&o=&s=1
Hotel Samadhan Lodging,Mumbai,Maharashtra,Hotel Samadhan Lodging Mumbai Maharashtra ,19.2071414,72.8517677,4,"2,299",https://cf.bstatic.com/xdata/images/hotel/square600/421362807.webp?k=a198a97e785f658a289469e1bf250c2f0f5700f73ecdeeb43632f55c666590cf&o=&s=1
Hotel Metropolis,Mumbai,Maharashtra,Hotel Metropolis Mumbai Maharashtra ,19.1168289,72.8798702,6.8,"5,265",https://cf.bstatic.com/xdata/images/hotel/square600/285424937.webp?k=19e63fbaef9326b97110637e0a275ad8b2926f8af327030a07495b1dd41ac215&o=&s=1
"The Shalimar Hotel, Kemps Corner",Mumbai,Maharashtra,"The Shalimar Hotel, Kemps Corner Mumbai Maharashtra ",18.9639998,72.8060284,7,"6,642",https://cf.bstatic.com/xdata/images/hotel/square600/92964978.webp?k=85d37f684f9c42e9296c3f4f70ce0cbe9813005c5ac9b458617945feca5cb6d1&o=&s=1
FabHotel Royal International,Mumbai,Maharashtra,FabHotel Royal International Mumbai Maharashtra ,19.1227379,72.8628845,7.6,"2,709",https://cf.bstatic.com/xdata/images/hotel/square600/342665186.webp?k=abff1e51bcc78144a838e326b471fe7298a16841df9d12a69b1a07a23d5a94bb&o=&s=1
"Bentley Hotel, Marine Drive",Mumbai,Maharashtra,"Bentley Hotel, Marine Drive Mumbai Maharashtra ",18.9432503,72.8229845,8.1,"4,523",https://cf.bstatic.com/xdata/images/hotel/square600/66642452.webp?k=986e9b4561ebb69973feecaa0d36676be9ed31124e0c3b30dfb54be6de846f58&o=&s=1
Zostel Mumbai,Mumbai,Maharashtra,Zostel Mumbai Mumbai Maharashtra ,19.1194616,72.8837906,7.8,"4,248",https://cf.bstatic.com/xdata/images/hotel/square600/118679094.webp?k=894154725bee85636c8196592a40676671fa42cfbcaa38e276b1529ff561d26b&o=&s=1
Hostel Vasantashram CST Mumbai,Mumbai,Maharashtra,Hostel Vasantashram CST Mumbai Mumbai Maharashtra ,18.9465424,72.8322984,7.3,"1,458",https://cf.bstatic.com/xdata/images/hotel/square600/153040241.webp?k=486a6680372ec12b648a9363a131e055b7d624c71b3c1ee6cf389516a2e4b475&o=&s=1
FabHotel Peninsula Suites,Mumbai,Maharashtra,FabHotel Peninsula Suites Mumbai Maharashtra ,18.9529834,72.8327627,4.7,"4,598",https://cf.bstatic.com/xdata/images/hotel/square600/323301869.webp?k=c691847a20e55542ac0be1300a6473667b384fd45bc0e1c58cedb9f1b722d384&o=&s=1
Nap Manor Hostels,Mumbai,Maharashtra,Nap Manor Hostels Mumbai Maharashtra ,19.0819974,72.8475767,9.1,"2,969",https://cf.bstatic.com/xdata/images/hotel/square600/255856201.webp?k=2797cb8e213f3fc59dcfe60c75e8977548146aec544f981d4328f0364566b787&o=&s=1
GCC Hotel and Club,Mumbai,Maharashtra,GCC Hotel and Club Mumbai Maharashtra ,19.282918,72.8783137,7.3,"4,500",https://cf.bstatic.com/xdata/images/hotel/square600/42773586.webp?k=940abcaef6834f9c33aad5eb9c8516875d790ef13459f03f492393ade780264e&o=&s=1
FabHotel Axis International,Mumbai,Maharashtra,FabHotel Axis International Mumbai Maharashtra ,19.112124,72.8882334,7.6,"3,258",https://cf.bstatic.com/xdata/images/hotel/square600/249703480.webp?k=edab6d9848010e22cabfad64709b3dd89e55bdce4ac9565b542858f87d0c06a4&o=&s=1
The Azure,Mumbai,Maharashtra,The Azure Mumbai Maharashtra ,19.0759837,72.8776559,4,"5,000",https://cf.bstatic.com/xdata/images/hotel/square600/423328346.webp?k=f405a4183163d7737f31b511409c0ebf7930ad5421fc4f3009788092ea11cfa7&o=&s=1
"Hotel Laaiba Residency Family & Corporate Stays, Jogeshwari West",Mumbai,Maharashtra,"Hotel Laaiba Residency Family & Corporate Stays, Jogeshwari West Mumbai Maharashtra ",19.1361474,72.8471285,7.8,"2,700",https://cf.bstatic.com/xdata/images/hotel/square600/282326021.webp?k=399624597caf36a431f826ee8bcbdd45663eeee110723020078b3859e59e6cb5&o=&s=1
Hotel Regal Inn,Mumbai,Maharashtra,Hotel Regal Inn Mumbai Maharashtra ,19.1051452,72.8607091,5.9,"4,160",https://cf.bstatic.com/xdata/images/hotel/square600/330429830.webp?k=43f0ad47ba442323811b1e2617dca9814ac97ff66519d23babed3fdc30955403&o=&s=1
FabHotel Atlas Plaza Andheri East,Mumbai,Maharashtra,FabHotel Atlas Plaza Andheri East Mumbai Maharashtra ,19.1214913,72.8504587,6.9,"3,153",https://cf.bstatic.com/xdata/images/hotel/square600/409529464.webp?k=9032357dffa818b6fa0ecd258b36ed1ce65c571f60e8c224ac0dc3d32def6065&o=&s=1
Hotel Grace Galaxy,Mumbai,Maharashtra,Hotel Grace Galaxy Mumbai Maharashtra ,19.0614829,72.8370616,5.8,"3,519",https://cf.bstatic.com/xdata/images/hotel/square600/236236692.webp?k=4f4aeb5c12b9993cdb1a55a1ffce38fda3f56793fd2009b9d2bcfccf64278902&o=&s=1
FabExpress The Dream Residency,Mumbai,Maharashtra,FabExpress The Dream Residency Mumbai Maharashtra ,19.0912358,72.8909406,7,"4,801",https://cf.bstatic.com/xdata/images/hotel/square600/411742851.webp?k=9ff334310d31c2817a06e3ef9dce52475b9562989dba9f2cb89cad993671681c&o=&s=1
Hotel KGN - Mumbai,Mumbai,Maharashtra,Hotel KGN - Mumbai Mumbai Maharashtra ,18.9571728,72.8363138,5.4,"2,880",https://cf.bstatic.com/xdata/images/hotel/square600/405791043.webp?k=945234ce77da10abcf91890e56a3865694809b15decaf722c8a3a43769f8187f&o=&s=1
Hotel Antique - Colaba,Mumbai,Maharashtra,Hotel Antique - Colaba Mumbai Maharashtra ,18.916938,72.8280176,7.8,"2,909",https://cf.bstatic.com/xdata/images/hotel/square600/204367792.webp?k=c4dbd9eebcb9bb9d79ac37c2cb8b22eb14ea8ee0ebba09750308e81e0651c68d&o=&s=1
Hotel Adore Palace,Mumbai,Maharashtra,Hotel Adore Palace Mumbai Maharashtra ,19.0969688,72.8837444,6.1,"3,859",https://cf.bstatic.com/xdata/images/hotel/square600/419368105.webp?k=eebffba0254f550521ae77ee3d80ffc0de1f42853f233bb5b898e149ae961e0c&o=&s=1
FabHotel Ascot International II,Mumbai,Maharashtra,FabHotel Ascot International II Mumbai Maharashtra ,19.1009601,72.8849503,7.2,"4,626",https://cf.bstatic.com/xdata/images/hotel/square600/350596441.webp?k=327e6710ee0818e19046ce1414acd9daced27f38c80cd7fd3323fe02b8648593&o=&s=1
Collection O 80650 Hotel Kiwi International,Mumbai,Maharashtra,Collection O 80650 Hotel Kiwi International Mumbai Maharashtra ,19.1228267,72.8919606,6,"2,072",https://cf.bstatic.com/xdata/images/hotel/square600/424542880.webp?k=153e148e186161db6cf5d833c710c76cbda0ddec535282204389ed6c640bcd11&o=&s=1
Hotel Leafio-Near Airport,Mumbai,Maharashtra,Hotel Leafio-Near Airport Mumbai Maharashtra ,19.102054,72.8860343,6,"2,699",https://cf.bstatic.com/xdata/images/hotel/square600/93008427.webp?k=c0b508acdb19c87c76a88a8b6b52c38f0663bcc4d998806e31c4a5ceaf022fd6&o=&s=1
"Hotel BKC CROWN - Near Trade Centre, Visa Consulate",Mumbai,Maharashtra,"Hotel BKC CROWN - Near Trade Centre, Visa Consulate Mumbai Maharashtra ",19.0716288,72.8691297,6,"3,240",https://cf.bstatic.com/xdata/images/hotel/square600/376047483.webp?k=601ba7a6eadd7d8ca792a414ed5eb850e1ee88a7dcad1863e75a8eca4b685cf7&o=&s=1
Hotel Blue Orchid - Marol Andheri,Mumbai,Maharashtra,Hotel Blue Orchid - Marol Andheri Mumbai Maharashtra ,19.1173012,72.8840395,6,"1,980",https://cf.bstatic.com/xdata/images/hotel/square600/265221360.webp?k=818e20f518d0fce7082eb4ddbfd93f87c1787034e9123180a06171da7bfda50e&o=&s=1
FabExpress Venture Grand,Mumbai,Maharashtra,FabExpress Venture Grand Mumbai Maharashtra ,19.096816,72.893142,4.8,"4,036",https://cf.bstatic.com/xdata/images/hotel/square600/221302960.webp?k=c82e17336228aa2f58fc334ac18d5feeb57d4e9dc8850475f6a964c095c647df&o=&s=1
Capital O Hotel Orbit Inn Near Infiniti Mall,Mumbai,Maharashtra,Capital O Hotel Orbit Inn Near Infiniti Mall Mumbai Maharashtra ,18.920261,72.8309144,3.8,"3,513",https://cf.bstatic.com/xdata/images/hotel/square600/384612894.webp?k=18d6f5761189baf990183ac3e6821e6d0612ac7f6d41541053e54c5208a32e45&o=&s=1
Hotel Sunshine Airport,Mumbai,Maharashtra,Hotel Sunshine Airport Mumbai Maharashtra ,19.1032218,72.8793472,6.2,"2,879",https://cf.bstatic.com/xdata/images/hotel/square600/159731200.webp?k=fbf3966d8bb7b7920a1209d18abba4e5e61d8150b3544cd7023915aed6a33544&o=&s=1
Hotel Embassy Park - BKC Mumbai,Mumbai,Maharashtra,Hotel Embassy Park - BKC Mumbai Mumbai Maharashtra ,19.0746545,72.8696478,7.5,"3,600",https://cf.bstatic.com/xdata/images/hotel/square600/386350219.webp?k=32cf240986874738d7a667138bc0d4a8c765c89577d9b1f0af8617c4595c0e35&o=&s=1
FabHotel LBSR Kurla West,Mumbai,Maharashtra,FabHotel LBSR Kurla West Mumbai Maharashtra ,19.0707532,72.8781322,5.3,"2,942",https://cf.bstatic.com/xdata/images/hotel/square600/391562821.webp?k=1ca15b1c1b14fe50dc89343e2ddd2aceaae15147d0c9fe45dd261118d4fa58a5&o=&s=1
Manori Beach Corner,Mumbai,Maharashtra,Manori Beach Corner Mumbai Maharashtra ,19.2088832,72.7817051,9,"1,999",https://cf.bstatic.com/xdata/images/hotel/square600/420501820.webp?k=104bb66346e8139d3e0d7cb3779c514dad2e4f5f0c1c6cd7593b3293a3ba2fb9&o=&s=1
Hotel Kumkum,Mumbai,Maharashtra,Hotel Kumkum Mumbai Maharashtra ,18.9650959,72.818902,6.9,"2,340",https://cf.bstatic.com/xdata/images/hotel/square600/102803378.webp?k=bd683e89d0e75f12d8050804cd79878e9a97df065f458159cca1d1a6a1dd2df6&o=&s=1
The Aster Karol Bagh,Delhi,,The Aster Karol Bagh Delhi  ,28.647192,77.1963882,7.1,"2,117",https://cf.bstatic.com/xdata/images/hotel/square600/363525411.webp?k=45becd832bdbcaa99c722ac5a23f2472f0b8f5b1f7445aae72c3ba4263b1a89f&o=&s=1
Hotel Krone A Family Hotel Near IGI Airport Delhi,Delhi,,Hotel Krone A Family Hotel Near IGI Airport Delhi Delhi  ,28.5501658,77.1133188,8.1,842,https://cf.bstatic.com/xdata/images/hotel/square600/424551837.webp?k=522d7fa127e6e1ca52e63a8aa94ed1855242b87112503c03165487c8d3d4b450&o=&s=1
Hotel Smart Plaza Delhi Airport,Delhi,,Hotel Smart Plaza Delhi Airport Delhi  ,28.5495743,77.130358,7.8,"1,666",https://cf.bstatic.com/xdata/images/hotel/square600/407800906.webp?k=724c45f6108a0974e37ff432a48f01734a61456d67c7b7a23cb620cda8ade98f&o=&s=1
Hotel Emporio Near New Delhi Railway Station,Delhi,,Hotel Emporio Near New Delhi Railway Station Delhi  ,28.6443745,77.2149644,7.4,792,https://cf.bstatic.com/xdata/images/hotel/square600/115565009.webp?k=b9a0ae7a0ea718ff42b7a2da5e4dbffb13170339a159014e6a071e861666cb72&o=&s=1
Hotel Emerald Park At Airport,Delhi,,Hotel Emerald Park At Airport Delhi  ,28.5425133,77.1291445,9.2,"1,245",https://cf.bstatic.com/xdata/images/hotel/square600/423991724.webp?k=208da762fa2da26aa3718a2fe0946be822546cbfd9b60bc5097bed99c78c28ab&o=&s=1
Hotel Square,Delhi,,Hotel Square Delhi  ,28.5438465,77.1292335,8.6,"1,017",https://cf.bstatic.com/xdata/images/hotel/square600/406749827.webp?k=cb6f5b6df08bbc69a91e7220bbe99af3c18d2173a7152b1d65c13fe62e91cc62&o=&s=1
Hotel Decent Suites - Delhi Airport,Delhi,,Hotel Decent Suites - Delhi Airport Delhi  ,28.550953,77.130183,8,"2,339",https://cf.bstatic.com/xdata/images/hotel/square600/419007718.webp?k=788a1c9edc2fe5dc33949855b02937795ab8b7d0ad4daddbb4701403178db173&o=&s=1
Hotel King Plaza,Delhi,,Hotel King Plaza Delhi  ,28.5501992,77.1303307,6.9,747,https://cf.bstatic.com/xdata/images/hotel/square600/285633388.webp?k=4ae355f55f2facefc0cf47f19c514d525685421f5075780f56de4da1a7026765&o=&s=1
Travel Inn At Delhi Airport,Delhi,,Travel Inn At Delhi Airport Delhi  ,28.6359593,77.3142967,7.3,"1,256",https://cf.bstatic.com/xdata/images/hotel/square600/405726486.webp?k=585be4749293d1e7f3b2de26e68b3962992ebcd9b1be075d70d4e1d6b2e63405&o=&s=1
The Suncourt Hotel Yatri,Delhi,,The Suncourt Hotel Yatri Delhi  ,28.6447025,77.1839798,8,"1,800",https://cf.bstatic.com/xdata/images/hotel/square600/13066281.webp?k=76d3400f28b8d25c2015f5461bcbacbf1ce3c65cc97f5811714ec79988e0b4a4&o=&s=1
The Suryaa New Delhi,Delhi,,The Suryaa New Delhi Delhi  ,28.5611468,77.269517,7.4,"6,262",https://cf.bstatic.com/xdata/images/hotel/square600/139856038.webp?k=96b662962ee12fad9bbc48633a9e8b5a9c333606a70efdc2e4da4c55a35a4fe2&o=&s=1
The Prime Delhi,Delhi,,The Prime Delhi Delhi  ,28.641946,77.2105763,8.4,"3,171",https://cf.bstatic.com/xdata/images/hotel/square600/331568749.webp?k=ba6541eac68e49b8e38e7dbb5e52d6f76ea13d06d001335d5007c7e61be27cf9&o=&s=1
Hotel King'S,Delhi,,Hotel King'S Delhi  ,28.6445883,77.1857682,7.6,731,https://cf.bstatic.com/xdata/images/hotel/square600/416051095.webp?k=ddde48f77f78438b6ad1da6411ae3de42966b24af81bf5eb61af104959eef2fd&o=&s=1
Treebo Trend Oak Tree,Delhi,,Treebo Trend Oak Tree Delhi  ,28.5936619,77.080787,10,"2,522",https://cf.bstatic.com/xdata/images/hotel/square600/423354499.webp?k=2831a859c97b9bf4db87b13ab0d27a14bc7ba04320513790834f0cc8976e4786&o=&s=1
Airport Hotel IVY,Delhi,,Airport Hotel IVY Delhi  ,28.5481408,77.1281954,8,706,https://cf.bstatic.com/xdata/images/hotel/square600/190360587.webp?k=00eb72ab3d3e7e1c9bb0c1cabee94fe75f704cce339532a7f62e72f7ca8250fb&o=&s=1
The Hermitage By Cosy Hotels,Delhi,,The Hermitage By Cosy Hotels Delhi  ,28.559924,77.256975,8,"3,237",https://cf.bstatic.com/xdata/images/hotel/square600/224025304.webp?k=6b7f51fbef0ae187a453bee20b39c11de1fce36e11895dff29c25ab733feec7c&o=&s=1
Hotel Cottage Yes Please Near New Delhi Railway Station,Delhi,,Hotel Cottage Yes Please Near New Delhi Railway Station Delhi  ,28.6410389,77.2103796,7.4,"3,259",https://cf.bstatic.com/xdata/images/hotel/square600/273903754.webp?k=179df5514fa7b87ea398dfc466db3c1ccfe382b0f0c49ceacc0faa2b88eed159&o=&s=1
Airport Hotel Clayton,Delhi,,Airport Hotel Clayton Delhi  ,28.7040592,77.1024902,8.6,630,https://cf.bstatic.com/xdata/images/hotel/square600/424052260.webp?k=5370b4084ce702f1a6dc243235af22b319a9bd9d0b5b63e1f62493f46f759d9d&o=&s=1
Hotel Blue Pearl,Delhi,,Hotel Blue Pearl Delhi  ,28.6452345,77.2158469,8.3,"2,177",https://cf.bstatic.com/xdata/images/hotel/square600/270284989.webp?k=c06a7e9fb6dae6ddb972d1cb32341d35da27b178035d34661e7f1ddda606013a&o=&s=1
Hotel Ritz,Delhi,,Hotel Ritz Delhi  ,28.6453012,77.2168787,8,"2,734",https://cf.bstatic.com/xdata/images/hotel/square600/219665212.webp?k=638b72e3f05aef605f047283459073b4fb8e7ceb61d66e8fbb831fbc56b38af4&o=&s=1
"Welcomhotel by ITC Hotels, Dwarka, New Delhi",Delhi,,"Welcomhotel by ITC Hotels, Dwarka, New Delhi Delhi  ",28.5787806,77.0557216,7,"6,498",https://cf.bstatic.com/xdata/images/hotel/square600/30393271.webp?k=06c7abdb39d630af704aa18fecb2385f3be4a9b57e69dcaec6a80b1e547fbf1d&o=&s=1
Hotel Krishna Deluxe-By RCG Hotels,Delhi,,Hotel Krishna Deluxe-By RCG Hotels Delhi  ,28.6459471,77.2146513,8,"1,741",https://cf.bstatic.com/xdata/images/hotel/square600/103738651.webp?k=91cd8698fb54ad6d09a8be0d825515898ebe132a43b43b45c0b194b73e9c066d&o=&s=1
Hotel Arch - Near Aerocity New Delhi,Delhi,,Hotel Arch - Near Aerocity New Delhi Delhi  ,28.5496373,77.1283579,7.7,"2,575",https://cf.bstatic.com/xdata/images/hotel/square600/339793079.webp?k=ae2bbf49cbdb6edbcd3976cb91e6e4e34ad22804d820558d0f9265854153ad1f&o=&s=1
Hotel Krishna - By RCG Hotels,Delhi,,Hotel Krishna - By RCG Hotels Delhi  ,28.6459471,77.2146513,8.1,"1,620",https://cf.bstatic.com/xdata/images/hotel/square600/103758084.webp?k=53d6e36c64652ebdc171f8601257643a2894e87ff356bc792689ee939126c921&o=&s=1
Hotel IVY plaza Luxury,Delhi,,Hotel IVY plaza Luxury Delhi  ,28.5481408,77.1281954,7.9,733,https://cf.bstatic.com/xdata/images/hotel/square600/409741173.webp?k=beb965657ad148c226b56b6545a191f805f72b91c7e710c7349b99cbcceec5a7&o=&s=1
OPO Hotels Alpine Tree,Delhi,,OPO Hotels Alpine Tree Delhi  ,28.548821,77.1272485,7,"2,673",https://cf.bstatic.com/xdata/images/hotel/square600/369293066.webp?k=25db334feaf5ead29b99485b73e2939415ff5a3684d353a4227f3053e0f941cf&o=&s=1
Colonel’s Retreat,Delhi,,Colonel’s Retreat Delhi  ,28.568761,77.2334361,8.7,"4,243",https://cf.bstatic.com/xdata/images/hotel/square600/11204798.webp?k=eebda39bbbee70615014e1d988ca8fbebb2d764414e0e3ad09e0f41113b5660c&o=&s=1
Hotel Palace Heights,Delhi,,Hotel Palace Heights Delhi  ,28.6337401,77.2211909,7.9,"5,220",https://cf.bstatic.com/xdata/images/hotel/square600/45385271.webp?k=b9b964bfb72d1fafb925005e4184e9c26cf59517c113f5c1b0047de81eda4146&o=&s=1
Hotel Arch Plaza - Near Delhi Airport,Delhi,,Hotel Arch Plaza - Near Delhi Airport Delhi  ,28.5308976,77.0801101,7.6,"2,789",https://cf.bstatic.com/xdata/images/hotel/square600/374767480.webp?k=7b8044d343e9c407bdc6e9ef3effe28ba420a367941a24c3bad85e38aff26817&o=&s=1
"Park Inn by Radisson,South Delhi",Delhi,,"Park Inn by Radisson,South Delhi Delhi  ",28.5638943,77.2347573,7.6,"6,749",https://cf.bstatic.com/xdata/images/hotel/square600/232822344.webp?k=0020cc9afea4eef31e8619a2523f346c82e2866e3d1ff74a2c5bc9bfb9cfbac5&o=&s=1
FabHotel Marble Arch,Delhi,,FabHotel Marble Arch Delhi  ,28.6452644,77.1927188,8,"1,997",https://cf.bstatic.com/xdata/images/hotel/square600/232115988.webp?k=e894ecd0c688aa838336edda4d65dcddb37b4db1267492a91d7d4e5b509fe0f8&o=&s=1
Hotel City Empire,Delhi,,Hotel City Empire Delhi  ,28.6440249,77.2164887,8,"2,235",https://cf.bstatic.com/xdata/images/hotel/square600/225046067.webp?k=8d5d5793c25f65f250c06f6c619ed1b57c281aeaec07f6763fba63a4a2a30646&o=&s=1
Home@F37 Kailash Colony Metro,Delhi,,Home@F37 Kailash Colony Metro Delhi  ,28.555274,77.243328,8.3,"3,150",https://cf.bstatic.com/xdata/images/hotel/square600/54719604.webp?k=6bf4f18e4c462f65eee9401022e0653b1fe2bac01f18dea209af88b815deccf1&o=&s=1
FabHotel Shanit Boutique,Delhi,,FabHotel Shanit Boutique Delhi  ,28.6588609,77.310387,8.7,"2,289",https://cf.bstatic.com/xdata/images/hotel/square600/420255912.webp?k=f121ccde34165a2588200406011ce4ea1e2689c2a715d03c21b1cddbd811a1b0&o=&s=1
Hotel Sky Rich International - 05 Mins from Karol Bagh Metro Station,Delhi,,Hotel Sky Rich International - 05 Mins from Karol Bagh Metro Station Delhi  ,28.6456252,77.1893068,7.6,"2,539",https://cf.bstatic.com/xdata/images/hotel/square600/115148874.webp?k=c92eaf9c7c1d46da6cb688ccfecc8241bd758bf24946b6fda22d87c5ebd4884e&o=&s=1
The Hermitage By Cosy Hotels,Delhi,,The Hermitage By Cosy Hotels Delhi  ,28.559924,77.256975,8,"3,237",https://cf.bstatic.com/xdata/images/hotel/square600/224025304.webp?k=6b7f51fbef0ae187a453bee20b39c11de1fce36e11895dff29c25ab733feec7c&o=&s=1
Smyle Inn - 3 minutes walk From New Delhi Railway Station,Delhi,,Smyle Inn - 3 minutes walk From New Delhi Railway Station Delhi  ,28.6428915,77.2190894,7.9,"1,134",https://cf.bstatic.com/xdata/images/hotel/square600/273965779.webp?k=1095be346b812960a78021177785cdc5d5b1baedcb7a91dc2894e3485aa22801&o=&s=1
FabHotel Prime Sage,Delhi,,FabHotel Prime Sage Delhi  ,28.5323184,77.2022192,6.6,"2,157",https://cf.bstatic.com/xdata/images/hotel/square600/231387921.webp?k=abd8929dfd972dd5fb81b7c2dc85e09872a078fee7e2453c9e700220bf26323e&o=&s=1
Hotel Shri Ram - Near IGI Airport,Delhi,,Hotel Shri Ram - Near IGI Airport Delhi  ,28.5561624,77.0999578,8.3,"1,080",https://cf.bstatic.com/xdata/images/hotel/square600/423905694.webp?k=644cbf6a2a0a4254f95e30e6c56338ef8dc95b2f76216b84db5561d894ffddac&o=&s=1
Hotel Sunstar Residency,Delhi,,Hotel Sunstar Residency Delhi  ,28.6462613,77.1840598,7.3,"1,620",https://cf.bstatic.com/xdata/images/hotel/square600/86981555.webp?k=9ab80d9492ddc73b80cb30c96103a1d22743285fd2af74b2c36800d4019ad25c&o=&s=1
"Hotel Nitya Maharani "" Couple Friendly "" Vaccinated Staff""",Delhi,,"Hotel Nitya Maharani "" Couple Friendly "" Vaccinated Staff"" Delhi  ",28.6463484,77.2150383,8.2,"2,749",https://cf.bstatic.com/xdata/images/hotel/square600/218029122.webp?k=f4c73e08b2b3ddbe4edfe2c8a4f253a65e69ff42021673eedff508664fa0a02c&o=&s=1
Hotel Siddharth A Boutique Guest House,Delhi,,Hotel Siddharth A Boutique Guest House Delhi  ,28.6402249,77.2138003,7.2,"1,300",https://cf.bstatic.com/xdata/images/hotel/square600/363008029.webp?k=cbb603eea6586cf75b67531e24d30258d3217e29762beb2df16adfab7318f93d&o=&s=1
Twilightinn hotel - Delh Airport,Delhi,,Twilightinn hotel - Delh Airport Delhi  ,28.5561624,77.0999578,7,630,https://cf.bstatic.com/xdata/images/hotel/square600/420747224.webp?k=9f2568bc07b4ffa4fa40a30c1fb846b3cba95fb4dd8befb1b87dc12eb175dc5a&o=&s=1
Hotel Star One - Near Delhi Airport,Delhi,,Hotel Star One - Near Delhi Airport Delhi  ,28.6139391,77.2090212,7.7,"3,131",https://cf.bstatic.com/xdata/images/hotel/square600/363351646.webp?k=ebf488e926e1c51e8a93a44f41d2f7469965f8b88a9f2251a70615e37a84fe02&o=&s=1
FabHotel Cabana,Delhi,,FabHotel Cabana Delhi  ,28.5480236,77.2397083,7.1,"2,943",https://cf.bstatic.com/xdata/images/hotel/square600/408930800.webp?k=de3a6c2be1b41570a89ce68c53d31a47ddac353a6fff48b3346bf0ed6e1f187d&o=&s=1
"HOTEL KABIR PALACE, Karol Bagh DELHI",Delhi,,"HOTEL KABIR PALACE, Karol Bagh DELHI Delhi  ",28.6474453,77.1984621,8.5,"2,316",https://cf.bstatic.com/xdata/images/hotel/square600/330866306.webp?k=30bd8c30363fba74630f4250787855a454d84ca092154cd618a9cb9d995843ab&o=&s=1
Hotel Clink Stay,Delhi,,Hotel Clink Stay Delhi  ,28.5506428,77.1302989,9.7,900,https://cf.bstatic.com/xdata/images/hotel/square600/424864289.webp?k=829a6af699416063b894076ecd5a6756a9e9259985451be48d2f300f947f2f04&o=&s=1
The Lavya Dolphin,Delhi,,The Lavya Dolphin Delhi  ,28.7040592,77.1024902,7,990,https://cf.bstatic.com/xdata/images/hotel/square600/425478475.webp?k=c009d8c94a71ff84c7a797adfe02240c3fc4368fd45a8d9fd8c37a6272c1a86b&o=&s=1
"THE SINGH EMPIRE, New Delhi",Delhi,,"THE SINGH EMPIRE, New Delhi Delhi  ",28.644691,77.2155047,7.9,"2,152",https://cf.bstatic.com/xdata/images/hotel/square600/220291701.webp?k=690a4b5eeadf581c86eff45b302e3d7b0bd072849084e4fcab87f6a638798e34&o=&s=1
FabHotel Golden Hitech,Hyderabad,Telangana,FabHotel Golden Hitech Hyderabad Telangana ,17.4526123,78.3899204,8.2,"1,124",https://cf.bstatic.com/xdata/images/hotel/square600/423928022.webp?k=f69420a7dfd21923d5bf64fe803a8bfa878d1d26e135a92e1c609d2d036dde4f&o=&s=1
FabHotel Asrani International,Hyderabad,Telangana,FabHotel Asrani International Hyderabad Telangana ,17.4401847,78.4879196,8.9,"2,417",https://cf.bstatic.com/xdata/images/hotel/square600/338047621.webp?k=4d846a3c4aa7c6219ae1b062ded85c0cd5f47cf6e0f13db09c7e1b5d603c5cad&o=&s=1
Collection O 80820 Relax Inn,Hyderabad,Telangana,Collection O 80820 Relax Inn Hyderabad Telangana ,17.4417327,78.4868203,7.5,"2,713",https://cf.bstatic.com/xdata/images/hotel/square600/425782359.webp?k=25c687d86ed9e1cd03caddd5787b497b240dd9e79e74b64864e2f767834a4f96&o=&s=1
FabHotel Pride Inn,Hyderabad,Telangana,FabHotel Pride Inn Hyderabad Telangana ,17.4446085,78.3830614,8.2,"1,892",https://cf.bstatic.com/xdata/images/hotel/square600/338187440.webp?k=ef0930da2657dab131d1cfe9bff1f00a422d966ce8aae9ae5103f238b49da86e&o=&s=1
Oakwood Residence Kapil Hyderabad,Hyderabad,Telangana,Oakwood Residence Kapil Hyderabad Hyderabad Telangana ,17.4214393,78.3390645,8.6,"9,000",https://cf.bstatic.com/xdata/images/hotel/square600/269788713.webp?k=c383254d0d6ec166ef3848a0c4b928d8c914351cb965b232441b04f547211ccb&o=&s=1
FabHotel Royal Residency Lakdikapul,Hyderabad,Telangana,FabHotel Royal Residency Lakdikapul Hyderabad Telangana ,17.402834,78.463036,7.7,"1,630",https://cf.bstatic.com/xdata/images/hotel/square600/243063425.webp?k=d27fef10890ba9a61b7508f56ac400e61ff7126f7b9f7ef970b01b63980689f9&o=&s=1
Daspalla Hyderabad,Hyderabad,Telangana,Daspalla Hyderabad Hyderabad Telangana ,17.4372402,78.3982646,7.3,"6,749",https://cf.bstatic.com/xdata/images/hotel/square600/148560554.webp?k=b708c43d2fefaea1881a15f912acc57fbe6f164839cd2732734e5ba0fafadce0&o=&s=1
"Hotel White Fields Hitec City, Hyderabad",Hyderabad,Telangana,"Hotel White Fields Hitec City, Hyderabad Hyderabad Telangana ",17.4554835,78.3684902,8.1,"2,414",https://cf.bstatic.com/xdata/images/hotel/square600/321796197.webp?k=3c118c1f8be229e254a9660fc1b887c1e0a90148cc7b6963cd3db7421cb2880b&o=&s=1
FabHotel Pearl City HiTech City,Hyderabad,Telangana,FabHotel Pearl City HiTech City Hyderabad Telangana ,17.455724,78.3738101,7.9,"2,418",https://cf.bstatic.com/xdata/images/hotel/square600/408793016.webp?k=d0eddabd3f4a6b47431b952485ce84d0b954ae5a6422c399b1de7507386ad263&o=&s=1
Treebo Trend Address Inn,Hyderabad,Telangana,Treebo Trend Address Inn Hyderabad Telangana ,17.4089211,78.4480343,8.2,"4,061",https://cf.bstatic.com/xdata/images/hotel/square600/402475998.webp?k=efa107a9fc75ac1de083435e656e3d511d4e6607bfba4bd36b56526cf778f6ff&o=&s=1
FabHotel GSR Grand,Hyderabad,Telangana,FabHotel GSR Grand Hyderabad Telangana ,17.4519779,78.3893058,7.7,"2,207",https://cf.bstatic.com/xdata/images/hotel/square600/405614716.webp?k=7bdfd8a981b48360515822dddd8df46edaeb6d26dc1a041941924497c29cea33&o=&s=1
M Square Hotel,Hyderabad,Telangana,M Square Hotel Hyderabad Telangana ,17.4559935,78.3753514,6.6,"2,114",https://cf.bstatic.com/xdata/images/hotel/square600/345163881.webp?k=95604ecbfdf1baefd7c6a8b68a2e3eca257871e7d16e965491d16404dc95217b&o=&s=1
OYO Flagship 80809 Sree Shakthi,Hyderabad,Telangana,OYO Flagship 80809 Sree Shakthi Hyderabad Telangana ,17.5499795,78.2361813,7,"2,113",https://cf.bstatic.com/xdata/images/hotel/square600/425782970.webp?k=12b14bb102d6eae8f88f20a54210614829e30fcff14ad368edebbb315ddea470&o=&s=1
FabHotel Deccan Heritage Abids,Hyderabad,Telangana,FabHotel Deccan Heritage Abids Hyderabad Telangana ,17.3878293,78.4776057,7.1,"1,892",https://cf.bstatic.com/xdata/images/hotel/square600/220344367.webp?k=ec3115a7dd812f1b02e28313129feb1debd074eeb861f228541b18294fc3f5d0&o=&s=1
RESTEL STUDIO FLATS,Hyderabad,Telangana,RESTEL STUDIO FLATS Hyderabad Telangana ,17.4503676,78.3995807,7.8,"2,091",https://cf.bstatic.com/xdata/images/hotel/square600/265402719.webp?k=ab2a6cc9bf33be5b33c1d0a2605842018512b44ccff9a8e584dcad6aa98f33bd&o=&s=1
ZIBE Hyderabad by GRT Hotels,Hyderabad,Telangana,ZIBE Hyderabad by GRT Hotels Hyderabad Telangana ,17.4956178,78.398699,8.3,"4,500",https://cf.bstatic.com/xdata/images/hotel/square600/324047127.webp?k=9e64030cba1edcab51cae52c1999f42d71a22da347030d62378c24918ff84e67&o=&s=1
FabHotel Mallikarjun Residency,Hyderabad,Telangana,FabHotel Mallikarjun Residency Hyderabad Telangana ,17.4086191,78.3901398,8.4,"1,596",https://cf.bstatic.com/xdata/images/hotel/square600/319437835.webp?k=8449c2e15cbaef542fded5f36e5188d13ec1d82f70b552f8b8c85ff497221c03&o=&s=1
"Vivanta Hyderabad, Begumpet",Hyderabad,Telangana,"Vivanta Hyderabad, Begumpet Hyderabad Telangana ",17.4431264,78.4605694,8.4,"9,000",https://cf.bstatic.com/xdata/images/hotel/square600/259876751.webp?k=4349825a8030a4c4854693918dcbb636d38e98bb7f3c98dde7d20c50d7d0183a&o=&s=1
Hotel Akoya - HITECH City Hyderabad,Hyderabad,Telangana,Hotel Akoya - HITECH City Hyderabad Hyderabad Telangana ,17.4459476,78.3816797,7.9,"2,750",https://cf.bstatic.com/xdata/images/hotel/square600/373047800.webp?k=4bca3378bdf71f228d1fd6200bfefeff16e4484cc0657700430187811fa741da&o=&s=1
Hotel B plus L,Hyderabad,Telangana,Hotel B plus L Hyderabad Telangana ,17.4558677,78.373316,7.4,"5,872",https://cf.bstatic.com/xdata/images/hotel/square600/168589051.webp?k=4b07d700835cf45b4849166c2e213ef8afe24d33a798872760eb8828ae3649c5&o=&s=1
FabHotel Fortune Grand,Hyderabad,Telangana,FabHotel Fortune Grand Hyderabad Telangana ,17.4040793,78.4613392,7.3,"1,681",https://cf.bstatic.com/xdata/images/hotel/square600/415705878.webp?k=98a87099c82aee6f8f5b59b795a158dcaca30965fcea4275c751a332641a6efd&o=&s=1
TRIPURA RESORTS,Hyderabad,Telangana,TRIPURA RESORTS Hyderabad Telangana ,17.385044,78.486671,7,"6,999",https://cf.bstatic.com/xdata/images/hotel/square600/426490554.webp?k=845d0d88983fab9e3e663e751e150df77b02c7f08e4b19f96858d2d4d148a41a&o=&s=1
Avana- A Boutique Hotel,Hyderabad,Telangana,Avana- A Boutique Hotel Hyderabad Telangana ,17.4264361,78.3298378,7.1,"3,915",https://cf.bstatic.com/xdata/images/hotel/square600/407991981.webp?k=34566402c3c0776f692271c6e7adba026ebb4a593b8879bc3f7ce6abc9d9caf6&o=&s=1
FabHotel Aamantran,Hyderabad,Telangana,FabHotel Aamantran Hyderabad Telangana ,17.410591,78.497672,7.4,"1,996",https://cf.bstatic.com/xdata/images/hotel/square600/399789492.webp?k=0b5d08edc75c447377136f23cdf8829e3fa84bb02834241646b73e37e80645b4&o=&s=1
FabHotel Hill View Begumpet,Hyderabad,Telangana,FabHotel Hill View Begumpet Hyderabad Telangana ,17.4411731,78.4765519,7.3,"2,816",https://cf.bstatic.com/xdata/images/hotel/square600/289859215.webp?k=2e21c23e1e301ec8d04e801aeccb124fa1d31555fce12b36275ab78020b24924&o=&s=1
"Hotel Deccan Serai Grande, Gachibowli, Hyderabad",Hyderabad,Telangana,"Hotel Deccan Serai Grande, Gachibowli, Hyderabad Hyderabad Telangana ",17.4371623,78.3673125,8.4,"8,009",https://cf.bstatic.com/xdata/images/hotel/square600/350195625.webp?k=a2d57d90e633fd6ecd494d4df0e00dd38afaa8d49ffaf44bd4949c0cb7dd6761&o=&s=1
FabHotel Mansingh Begum Bazar Road,Hyderabad,Telangana,FabHotel Mansingh Begum Bazar Road Hyderabad Telangana ,17.3764724,78.4713396,7.2,"1,786",https://cf.bstatic.com/xdata/images/hotel/square600/176112337.webp?k=976c0eeff649bc6ee25b7039e423b80a4bb007a9eb46ad2acb16a5fc5ac2d8c0&o=&s=1
FabHotel Hill View Jubilee Hills,Hyderabad,Telangana,FabHotel Hill View Jubilee Hills Hyderabad Telangana ,17.4206873,78.403694,7.7,"2,628",https://cf.bstatic.com/xdata/images/hotel/square600/103327598.webp?k=b697d500148075b0f302335ef011b73c20c48e9fb91dcf0d95efe068e0740633&o=&s=1
FabHotel Sapphire Asta,Hyderabad,Telangana,FabHotel Sapphire Asta Hyderabad Telangana ,17.4466864,78.3815892,6.7,"2,102",https://cf.bstatic.com/xdata/images/hotel/square600/338187770.webp?k=58c8482731cd1fa88a683973450f096301096a4c1f9e576e8e430e3947bc98d3&o=&s=1
Misty Lake Guest House,Hyderabad,Telangana,Misty Lake Guest House Hyderabad Telangana ,17.430537,78.3339255,8.8,"1,980",https://cf.bstatic.com/xdata/images/hotel/square600/155062236.webp?k=4552635d8cad6e68a81db829bb32d14cb7195efff1cf98eee65f6f6cb075362c&o=&s=1
"Lemon Tree Hotel, Banjara Hills, Hyderabad",Hyderabad,Telangana,"Lemon Tree Hotel, Banjara Hills, Hyderabad Hyderabad Telangana ",17.4120794,78.4501014,7,"8,742",https://cf.bstatic.com/xdata/images/hotel/square600/133799567.webp?k=73d47c7625cce2ea7462baa1906c36b2c46d9944f4226c3c36957c4dc8dfdebe&o=&s=1
Treebo Trend Vashistha Lakdikapul,Hyderabad,Telangana,Treebo Trend Vashistha Lakdikapul Hyderabad Telangana ,17.4023965,78.4630533,6.1,"3,433",https://cf.bstatic.com/xdata/images/hotel/square600/309259242.webp?k=d0e185acfe719acdc1f5fea1bc2dd9d20813baea8bfe1b79cf8e3490205ba235&o=&s=1
Yellow Bells Green Nest,Hyderabad,Telangana,Yellow Bells Green Nest Hyderabad Telangana ,17.4420734,78.3636407,7.5,"3,200",https://cf.bstatic.com/xdata/images/hotel/square600/425802930.webp?k=866e9b347cac9010c951976a54506caf037fb93ec6b3a8403be01569522fff0b&o=&s=1
FabExpress Broholic Suites,Hyderabad,Telangana,FabExpress Broholic Suites Hyderabad Telangana ,17.515701,78.446083,8.1,"1,156",https://cf.bstatic.com/xdata/images/hotel/square600/411665949.webp?k=dd31321256506365cfbe03f1d67c4f39dc61fe4642056d2b25091f95a4bf3601&o=&s=1
Treebo Trend Arastu Nampally,Hyderabad,Telangana,Treebo Trend Arastu Nampally Hyderabad Telangana ,17.3907806,78.4760695,6.9,"3,037",https://cf.bstatic.com/xdata/images/hotel/square600/321187483.webp?k=48933f720c0fe3a815e89cf11176e409b7c039e2d79edec7ccfcf2657d560645&o=&s=1
Taj Mahal Hotel Abids,Hyderabad,Telangana,Taj Mahal Hotel Abids Hyderabad Telangana ,17.399336,78.492283,6.8,"2,217",https://cf.bstatic.com/xdata/images/hotel/square600/92298765.webp?k=3d729510f73880115cd59d7ae1aca682a145fdf2cf3cc70c84e24fdb794ed86b&o=&s=1
FabHotel Prime Kokapet,Hyderabad,Telangana,FabHotel Prime Kokapet Hyderabad Telangana ,17.399028,78.334767,7.2,"2,522",https://cf.bstatic.com/xdata/images/hotel/square600/413767876.webp?k=2c752ec10bf90dedc32c04f09a71445d9a76369555df292ee4eb96a026dba0a2&o=&s=1
ibis Hyderabad Hitec City - An Accor Brand,Hyderabad,Telangana,ibis Hyderabad Hitec City - An Accor Brand Hyderabad Telangana ,17.4474821,78.3788642,7.2,"5,199",https://cf.bstatic.com/xdata/images/hotel/square600/292981159.webp?k=a13b89bdb5c33ab42eeaba0365016a1c189c5cf594f1fa2e67693743c3afb8bb&o=&s=1
Treebo Tryst Seven Lake View,Hyderabad,Telangana,Treebo Tryst Seven Lake View Hyderabad Telangana ,17.4292363,78.4870828,6.7,"4,322",https://cf.bstatic.com/xdata/images/hotel/square600/354325682.webp?k=09d916379c34e945a831ec9688d304c06c73b5685a3ba993d8d5af79e48ba8d3&o=&s=1
"Hotel Deccan Serai, HITEC CITY, HYDERABAD",Hyderabad,Telangana,"Hotel Deccan Serai, HITEC CITY, HYDERABAD Hyderabad Telangana ",17.4427653,78.38254,7.6,"5,400",https://cf.bstatic.com/xdata/images/hotel/square600/127779070.webp?k=fa168d2783446c3c25e65344f5dadf7655e493f56d68f9076607611a029d6a0e&o=&s=1
Treebo Trend Fort Club,Hyderabad,Telangana,Treebo Trend Fort Club Hyderabad Telangana ,17.3711713,78.4245867,6.8,"2,792",https://cf.bstatic.com/xdata/images/hotel/square600/328887206.webp?k=8e855b20732861f1c8de53c11321710521e62928ef311081748e6a08aa4aa735&o=&s=1
FabHotel Hill View II Hitech City,Hyderabad,Telangana,FabHotel Hill View II Hitech City Hyderabad Telangana ,17.4557084,78.3739217,7,"3,130",https://cf.bstatic.com/xdata/images/hotel/square600/244537290.webp?k=f73c6ae229c8bf435f7888e441dc13ae9a5595be1429194e34dfe02114fc2abe&o=&s=1
Itsy By Treebo - 99 Inn Hitech City,Hyderabad,Telangana,Itsy By Treebo - 99 Inn Hitech City Hyderabad Telangana ,17.4599506,78.3845106,7.4,"4,680",https://cf.bstatic.com/xdata/images/hotel/square600/401959154.webp?k=77258e328484c703da1d4d0e3f4cde02a438293498f64956ae437fc0f197643b&o=&s=1
FabExpress Airport Stay Inn,Hyderabad,Telangana,FabExpress Airport Stay Inn Hyderabad Telangana ,17.2407293,78.475558,8.1,"1,367",https://cf.bstatic.com/xdata/images/hotel/square600/424814202.webp?k=c3f5094a95d9fb1c57c830484d480bb3f0d55062c06fa0952a936c5ea081793e&o=&s=1
Capital O 91547 Srinika Inn,Hyderabad,Telangana,Capital O 91547 Srinika Inn Hyderabad Telangana ,17.4326624,78.3257033,7.2,998,https://cf.bstatic.com/xdata/images/hotel/square600/374712525.webp?k=b186ba03ff5aa28195b3829b4c5aced474ec4888a24306afca4cecdaf4c5ab72&o=&s=1
Treebo Trend Arastu Grand,Hyderabad,Telangana,Treebo Trend Arastu Grand Hyderabad Telangana ,17.3907806,78.4760695,7.1,"3,083",https://cf.bstatic.com/xdata/images/hotel/square600/405909259.webp?k=a41a5a831f18324ce6c64f9886be5d82cab5e46c7b0daeae593296f5e4b73674&o=&s=1
Treebo Trend Kruthika Residency,Hyderabad,Telangana,Treebo Trend Kruthika Residency Hyderabad Telangana ,17.4431824,78.354086,7.3,"4,835",https://cf.bstatic.com/xdata/images/hotel/square600/369064525.webp?k=cf5727e30c8935d03913ad2140849dc36e5a51bc001d51cc72ecf447ea14f7db&o=&s=1
Iris at Nest,Hyderabad,Telangana,Iris at Nest Hyderabad Telangana ,17.5105485,78.3902101,7.1,"1,665",https://cf.bstatic.com/xdata/images/hotel/square600/324522677.webp?k=e55cad2fcbbf96253dab87f297a55561d6870b409e4b407f089bee9ff84b9ac8&o=&s=1
Lemon Tree Premier Hitec City Hyderabad,Hyderabad,Telangana,Lemon Tree Premier Hitec City Hyderabad Hyderabad Telangana ,17.4431827,78.3765757,6.7,"8,058",https://cf.bstatic.com/xdata/images/hotel/square600/35290996.webp?k=91e53bd33d290fba11145dfad69b3d90d6421279ec3b47c9fbeba3fb06595e5f&o=&s=1
OYO Flagship 80668 The Botanica,Hyderabad,Telangana,OYO Flagship 80668 The Botanica Hyderabad Telangana ,17.4499872,78.3612894,6.1,"1,703",https://cf.bstatic.com/xdata/images/hotel/square600/428409803.webp?k=ec1a954ec15d1d82b344374fb8219bdadff775d1fa6991598d4b095d5ea64bb3&o=&s=1
Taz Kamar Family Hotel,Chennai,Tamil Nadu,Taz Kamar Family Hotel Chennai Tamil Nadu ,13.0392733,80.2293064,8.4,"2,915",https://cf.bstatic.com/xdata/images/hotel/square600/281715288.webp?k=775ee1d4362f70801106dc699605ee6d2bb96de3f8412660e8c5ffbf23661ed9&o=&s=1
Hotel Beebiz Guindy,Chennai,Tamil Nadu,Hotel Beebiz Guindy Chennai Tamil Nadu ,13.0159572,80.2258932,7.5,"2,105",https://cf.bstatic.com/xdata/images/hotel/square600/278169762.webp?k=7efc7fbf1de533450876aeaabda3a8d886f559ce400c141ed3c22111e5e5b4f6&o=&s=1
"The Raintree, Anna Salai",Chennai,Tamil Nadu,"The Raintree, Anna Salai Chennai Tamil Nadu ",13.0340298,80.2439189,8,"6,299",https://cf.bstatic.com/xdata/images/hotel/square600/45430568.webp?k=3d4ffbfb18253153b3e2c1b4afb043e09920d8b5d7ffe540b4d29a84327fd1c2&o=&s=1
Regenta Central RS Chennai OMR SIPCOT,Chennai,Tamil Nadu,Regenta Central RS Chennai OMR SIPCOT Chennai Tamil Nadu ,12.8355804,80.2292691,8.1,"3,208",https://cf.bstatic.com/xdata/images/hotel/square600/200371201.webp?k=6f05bab15e2a57524080acf2c02c2f8632437d5cc384d47172c6d6de5afd9f01&o=&s=1
Savera Hotel,Chennai,Tamil Nadu,Savera Hotel Chennai Tamil Nadu ,13.0456244,80.2611286,6.9,"4,535",https://cf.bstatic.com/xdata/images/hotel/square600/351751546.webp?k=7651057f1a498d9218c8c4c9e38f7ef42f5d1d1ea5bc0f2d5b0b25212641c6a1&o=&s=1
Radisson Blu Hotel Chennai City Centre,Chennai,Tamil Nadu,Radisson Blu Hotel Chennai City Centre Chennai Tamil Nadu ,13.0670499,80.255744,8,"6,705",https://cf.bstatic.com/xdata/images/hotel/square600/232827704.webp?k=629567a1fee894fca1f8541ef32a6be4fea892c82c87d3e29b1b24042fbf3ea3&o=&s=1
Ramada Plaza Chennai,Chennai,Tamil Nadu,Ramada Plaza Chennai Chennai Tamil Nadu ,13.0119922,80.2220049,8.2,"6,074",https://cf.bstatic.com/xdata/images/hotel/square600/158865679.webp?k=7ea7454a8441d4552125d75c27f4bcbc5c85330f347dd73963236108d8ff45e4&o=&s=1
Grand Chennai by GRT Hotels,Chennai,Tamil Nadu,Grand Chennai by GRT Hotels Chennai Tamil Nadu ,13.0401407,80.2451383,8.6,"7,661",https://cf.bstatic.com/xdata/images/hotel/square600/83156390.webp?k=e1d68b98a12bdf736ee1023ff9368e67077f28dab1e0c6ea0d629ebc5c324351&o=&s=1
The Lotus Hotel Sameera,Chennai,Tamil Nadu,The Lotus Hotel Sameera Chennai Tamil Nadu ,13.066684,80.2701572,8.3,"3,132",https://cf.bstatic.com/xdata/images/hotel/square600/78889399.webp?k=590aea1bd118bb5245ae6cc004bd09f2e69af9d85179faca1ee1d000db85fc98&o=&s=1
E Hotel,Chennai,Tamil Nadu,E Hotel Chennai Tamil Nadu ,13.0587535,80.2629335,7.7,"5,399",https://cf.bstatic.com/xdata/images/hotel/square600/421534728.webp?k=44221ff06cd543347e2ef4c863839947457edeac98fd3f87001cccbf70107fe7&o=&s=1
Hotel Kamar Residences and Banquets,Chennai,Tamil Nadu,Hotel Kamar Residences and Banquets Chennai Tamil Nadu ,12.9589844,80.2560459,8.8,"2,475",https://cf.bstatic.com/xdata/images/hotel/square600/333167240.webp?k=1c6035244a149c2c62489389bfe17fbe319c11d1f5755164272cc3243d221b6b&o=&s=1
"Season 4 Residences - Nungambakkam Near US consulate, Apollo Hospital, Shankar Nethralaya",Chennai,Tamil Nadu,"Season 4 Residences - Nungambakkam Near US consulate, Apollo Hospital, Shankar Nethralaya Chennai Tamil Nadu ",13.0677,80.246768,7.1,"2,699",https://cf.bstatic.com/xdata/images/hotel/square600/116393530.webp?k=ab1bc74e014390217ce43b8429fde483e3797954e1aeeca658d003eea677ac12&o=&s=1
FabExpress P.A.S Residency,Chennai,Tamil Nadu,FabExpress P.A.S Residency Chennai Tamil Nadu ,13.0423019,80.2735904,8.4,"1,339",https://cf.bstatic.com/xdata/images/hotel/square600/321476958.webp?k=e4348777cc2ea308c4318134019bf149c72b4c8e5cc0a9ad01f4cdf5f10e6bea&o=&s=1
Hotel Comfort Park - Opposite Sri Ramachandra Medical College Porur,Chennai,Tamil Nadu,Hotel Comfort Park - Opposite Sri Ramachandra Medical College Porur Chennai Tamil Nadu ,13.0370059,80.1396489,8.2,"3,045",https://cf.bstatic.com/xdata/images/hotel/square600/405792380.webp?k=9dd82b590e31f3378d9008a8f219f44202777935e72092dde5b1f61f41f92ede&o=&s=1
FabExpress B Zone,Chennai,Tamil Nadu,FabExpress B Zone Chennai Tamil Nadu ,13.0578282,80.2414978,8.8,"2,418",https://cf.bstatic.com/xdata/images/hotel/square600/249162871.webp?k=e24d2c3736c1f12470d6b26cd5781950c2601b9cc62b471897be619aec60c8f7&o=&s=1
Park Avenue Hotel (Near US Consulate & Sankara Nethralaya Hospital),Chennai,Tamil Nadu,Park Avenue Hotel (Near US Consulate & Sankara Nethralaya Hospital) Chennai Tamil Nadu ,13.0677,80.246768,6.9,"2,969",https://cf.bstatic.com/xdata/images/hotel/square600/28848508.webp?k=f444440a957d464cbc3988f3f92cd10a22af5ee0f9107aee02f507aaa04c7270&o=&s=1
Collection O 80814 Hotel VL,Chennai,Tamil Nadu,Collection O 80814 Hotel VL Chennai Tamil Nadu ,13.0826802,80.2707184,7.5,"3,116",https://cf.bstatic.com/xdata/images/hotel/square600/425782500.webp?k=f8a7fe1d41e4503cdd6fb0ea25f30fde66e7dd6e89fb70ae6e81030932e50d6f&o=&s=1
"Radisson Blu Hotel GRT, Chennai",Chennai,Tamil Nadu,"Radisson Blu Hotel GRT, Chennai Chennai Tamil Nadu ",12.9942293,80.1875621,8.7,"6,120",https://cf.bstatic.com/xdata/images/hotel/square600/414928179.webp?k=01d680fda4e6f535174337f7f36235f61c44a8632a0b2aea3ddb71d482dd272d&o=&s=1
Mermaid Resorts & Banquets,Chennai,Tamil Nadu,Mermaid Resorts & Banquets Chennai Tamil Nadu ,12.7850209,80.2142611,7.9,"2,709",https://cf.bstatic.com/xdata/images/hotel/square600/235640600.webp?k=d94c86d5192d549ec67ff34e3737df15d8b80b65c19a695d684b34f9f3179880&o=&s=1
Broad Lands,Chennai,Tamil Nadu,Broad Lands Chennai Tamil Nadu ,13.062898,80.2734032,7.8,"1,170",https://cf.bstatic.com/xdata/images/hotel/square600/123910192.webp?k=1bcf23c8e4d62532b9f99bffd21209be5bf1d31ad39b929902f5e47526e81888&o=&s=1
FabHotel Nestlay Rooms Airport,Chennai,Tamil Nadu,FabHotel Nestlay Rooms Airport Chennai Tamil Nadu ,12.9982852,80.1929224,8.4,"2,353",https://cf.bstatic.com/xdata/images/hotel/square600/296016783.webp?k=f22ad850e13aa9b1f4cefeea19ab0e484213bcac34843ceb9841b62047adbcc2&o=&s=1
FabHotel Blossoms Service Apartment,Chennai,Tamil Nadu,FabHotel Blossoms Service Apartment Chennai Tamil Nadu ,13.03846,80.24002,8.2,"2,733",https://cf.bstatic.com/xdata/images/hotel/square600/325231406.webp?k=d3002fc6082eddf1dde5d939c9a84449dbaf61253fb7b8e11e58f36cc36c6a99&o=&s=1
UPAR Hotels - T Nagar,Chennai,Tamil Nadu,UPAR Hotels - T Nagar Chennai Tamil Nadu ,13.0417183,80.2374817,7.9,"2,610",https://cf.bstatic.com/xdata/images/hotel/square600/350212340.webp?k=bad09fa225046f78097c2a48ae8cf85d4ebd64d2601ff4070dad48629505d0f8&o=&s=1
Liza Regency,Chennai,Tamil Nadu,Liza Regency Chennai Tamil Nadu ,13.0844484,80.2698495,6.9,"1,782",https://cf.bstatic.com/xdata/images/hotel/square600/199659183.webp?k=d227079d3810ae9198f84be247f7c2defa5a6450c8d7584e25d40f2912205b9e&o=&s=1
FabHotel Sri Krishna Residency Airport,Chennai,Tamil Nadu,FabHotel Sri Krishna Residency Airport Chennai Tamil Nadu ,12.9892708,80.1931692,8.2,"1,997",https://cf.bstatic.com/xdata/images/hotel/square600/186210640.webp?k=b50f176267efd837076bb7ce781204f3b49e3375fd8bdebc7ffb7fdc0255eb77&o=&s=1
Hotel Southern Comfort,Chennai,Tamil Nadu,Hotel Southern Comfort Chennai Tamil Nadu ,12.9860694,80.17469,5.9,"4,319",https://cf.bstatic.com/xdata/images/hotel/square600/81506412.webp?k=23e3ca5e3c0cd26a7905c3d3d8c57b2c3affc12ad29588fc1f1b86887b5ee2fa&o=&s=1
FabHotel Colors Apartment,Chennai,Tamil Nadu,FabHotel Colors Apartment Chennai Tamil Nadu ,13.0287895,80.2761677,7.9,"2,068",https://cf.bstatic.com/xdata/images/hotel/square600/251640963.webp?k=66f8cd196f3faec320e06334012613cd23e7aacc434e163d2af707b87ae6ad49&o=&s=1
Novotel Chennai Chamiers Road,Chennai,Tamil Nadu,Novotel Chennai Chamiers Road Chennai Tamil Nadu ,13.0298523,80.2442139,8.2,"7,192",https://cf.bstatic.com/xdata/images/hotel/square600/225012476.webp?k=00fde65ad21e17f173a10a6280d0aa6b130af924bd958c6261231b09b5fd0118&o=&s=1
The Madras Grand,Chennai,Tamil Nadu,The Madras Grand Chennai Tamil Nadu ,13.075251,80.2560248,7.8,"3,919",https://cf.bstatic.com/xdata/images/hotel/square600/346521981.webp?k=ddac42e298ef0116bddfee5d0f0df7bbc0056f80264c4d461b5fcaa5f0b82f60&o=&s=1
"The Raintree, St. Mary’s Road",Chennai,Tamil Nadu,"The Raintree, St. Mary’s Road Chennai Tamil Nadu ",13.028685,80.252661,8.6,"7,199",https://cf.bstatic.com/xdata/images/hotel/square600/329177887.webp?k=22be0cd69a52de7dc791f77d75d708481ac9e177db04e6d2401ebfd8ecbf1f9c&o=&s=1
"Avenue 11 Boutique Residences, Poes Garden Chennai",Chennai,Tamil Nadu,"Avenue 11 Boutique Residences, Poes Garden Chennai Chennai Tamil Nadu ",13.0425069,80.2532065,8.4,"3,870",https://cf.bstatic.com/xdata/images/hotel/square600/54795583.webp?k=4fc62c71450be96a3ff0a8d6fcbb3b06b0b81a50f511d4c9747a13fc395a07b3&o=&s=1
Novotel Chennai OMR,Chennai,Tamil Nadu,Novotel Chennai OMR Chennai Tamil Nadu ,12.905224,80.229228,8.2,"6,431",https://cf.bstatic.com/xdata/images/hotel/square600/117993839.webp?k=a257252ac4e8e1672e7efc74e700dacc24d5eed606aca672572317e8ef089c72&o=&s=1
Novotel Chennai Sipcot,Chennai,Tamil Nadu,Novotel Chennai Sipcot Chennai Tamil Nadu ,12.83115,80.230078,8.2,"5,540",https://cf.bstatic.com/xdata/images/hotel/square600/236461888.webp?k=9a14eadd194d7fb84235b77076134fbf91534bdbae665fd3ded9b6aed76a8e77&o=&s=1
Treebo Trend Earth Aparthotel,Chennai,Tamil Nadu,Treebo Trend Earth Aparthotel Chennai Tamil Nadu ,13.0238802,80.2021016,8.9,"2,522",https://cf.bstatic.com/xdata/images/hotel/square600/380716511.webp?k=7dee11be73afe52ea12ce229ac72d94186aebc6b9b284bc9f9594e6a35e4ac7a&o=&s=1
The Residency Towers,Chennai,Tamil Nadu,The Residency Towers Chennai Tamil Nadu ,13.0404081,80.2437989,8.6,"7,499",https://cf.bstatic.com/xdata/images/hotel/square600/104943506.webp?k=a0c56ed74e9968974121752f9a7b5a00a3101c8d12311f2630edeb7841eb4619&o=&s=1
century courtyard,Chennai,Tamil Nadu,century courtyard Chennai Tamil Nadu ,13.0562412,80.2552456,7.1,"2,474",https://cf.bstatic.com/xdata/images/hotel/square600/300611465.webp?k=42c93682acfd2b58dd2fc2cfccc99230d520084756149702909c36f16beeed78&o=&s=1
Treebo Trend Elan Nungambakkam,Chennai,Tamil Nadu,Treebo Trend Elan Nungambakkam Chennai Tamil Nadu ,13.0537934,80.240737,6.9,"4,781",https://cf.bstatic.com/xdata/images/hotel/square600/65643447.webp?k=84fb6c3db9572f6bc71ddc964de18a5be3ee552be6f405619b8cb4df35ec7b98&o=&s=1
Taj Club House,Chennai,Tamil Nadu,Taj Club House Chennai Tamil Nadu ,13.0615371,80.2640144,7.7,"6,300",https://cf.bstatic.com/xdata/images/hotel/square600/174032059.webp?k=e2c95ab44c4fcdcc06e0f45457ae70ac6652b7ab3ff04ea2cf985cbbb30051cb&o=&s=1
Quality Inn Sabari,Chennai,Tamil Nadu,Quality Inn Sabari Chennai Tamil Nadu ,13.0475929,80.2400513,7.3,"3,999",https://cf.bstatic.com/xdata/images/hotel/square600/284981344.webp?k=f593f6b0669308b1ec3766cedde7829b974b0ce9a319b788c14d288b600c5933&o=&s=1
Itsy By Treebo - Deluxe Inn,Chennai,Tamil Nadu,Itsy By Treebo - Deluxe Inn Chennai Tamil Nadu ,13.0402257,80.24046,7.1,"3,249",https://cf.bstatic.com/xdata/images/hotel/square600/275504182.webp?k=c5cd141f089e2864917dca94ec4848c45f7a2ddbceebff6b527969658c423160&o=&s=1
FabHotel Sasti Inn,Chennai,Tamil Nadu,FabHotel Sasti Inn Chennai Tamil Nadu ,12.9463028,80.2412134,8.5,"1,997",https://cf.bstatic.com/xdata/images/hotel/square600/360142912.webp?k=3abe3c29f3eaefa92c5f99dd6e6a65ff7c26a01a659477b7894f6282c42963bf&o=&s=1
"Friendlystay - Home Stay in Porur,",Chennai,Tamil Nadu,"Friendlystay - Home Stay in Porur, Chennai Tamil Nadu ",13.0156878,80.146836,9.3,"1,620",https://cf.bstatic.com/xdata/images/hotel/square600/317383528.webp?k=77b82735c95d2e24f1db9d7a1970d2c8e1049ae6abf934c56c01ea7a556f3182&o=&s=1
Hanu Reddy Residences Poes Garden,Chennai,Tamil Nadu,Hanu Reddy Residences Poes Garden Chennai Tamil Nadu ,13.0418879,80.2540165,7.7,"4,447",https://cf.bstatic.com/xdata/images/hotel/square600/399052394.webp?k=928d78e6865bfcda05c69c9b96f0b20934a62554b98936aa32defc0d70fb4af3&o=&s=1
Kings Palace,Chennai,Tamil Nadu,Kings Palace Chennai Tamil Nadu ,12.9778147,80.131231,7.8,"1,980",https://cf.bstatic.com/xdata/images/hotel/square600/379457143.webp?k=c4810e996f57d0f73fe3f1e13058abab0a568732601a968654ccb40c51238106&o=&s=1
Treebo Trend Vapr Guindy Ekkatuthangal,Chennai,Tamil Nadu,Treebo Trend Vapr Guindy Ekkatuthangal Chennai Tamil Nadu ,13.0239407,80.2041231,8,"3,584",https://cf.bstatic.com/xdata/images/hotel/square600/295034413.webp?k=961966b23f8abfdc649f1a4cbd01ba74c603b55982eadb09324dfe7c13ef78e5&o=&s=1
Sreedevi Residency,Chennai,Tamil Nadu,Sreedevi Residency Chennai Tamil Nadu ,13.039333,80.236715,8.2,"5,638",https://cf.bstatic.com/xdata/images/hotel/square600/87598397.webp?k=26088921c3236f90553e956830586beb20a1b8eafb5c4dd3c428adf5658c7431&o=&s=1
Kences Inn T nagar,Chennai,Tamil Nadu,Kences Inn T nagar Chennai Tamil Nadu ,13.04673,80.2458883,3,"1,750",https://cf.bstatic.com/xdata/images/hotel/square600/422200637.webp?k=5520facf1efae1ae70489eea57047bf8884ca1c6b42b57c2bf08a97a578f13b7&o=&s=1
Clarion Hotel President,Chennai,Tamil Nadu,Clarion Hotel President Chennai Tamil Nadu ,13.0434605,80.2711484,6,"4,752",https://cf.bstatic.com/xdata/images/hotel/square600/387183605.webp?k=a291ca079d16fbdba802e379e1a55da45645554cc806a7613322398d2833c42d&o=&s=1
Le Royal Meridien Chennai,Chennai,Tamil Nadu,Le Royal Meridien Chennai Chennai Tamil Nadu ,13.0066522,80.2055563,7,"8,000",https://cf.bstatic.com/xdata/images/hotel/square600/252816608.webp?k=bfd4c8b8a6669d9fe3a4f908613f1e0439da95e0aa42f1acc71790fabe78244f&o=&s=1